{"response":{"venues":[{"id":"4bd9c1072e6f0f47bfd20b08","location":{"distance":72,"postalCode":"10461","address":"1320 Hutchinson River Pkwy","state":"NY","lng":-73.83803844451904,"lat":40.83710949725479,"country":"USA","city":"Bronx"},"stats":{"checkinsCount":523,"usersCount":287,"tipCount":10},"verified":true,"name":"Dunkin' Donuts","categories":[{"id":"4bf58dd8d48988d148941735","icon":{"sizes":[32,44,64,88,256],"name":".png","prefix":"https://foursquare.com/img/categories/food/bagels_"},"primary":true,"name":"Donut Shop","shortName":"Donuts","pluralName":"Donut Shops"}],"hereNow":{"count":0},"contact":{"twitter":"dunkindonuts","phone":"7188635225","formattedPhone":"(718) 863-5225"},"url":"http://www.dunkindonuts.com/"},{"id":"4eb79bcb5c5c5a5320eec1e3","location":{"distance":34,"postalCode":"11372","address":"Can't Sleep Street","state":"NY","lng":-73.8385378626006,"lat":40.83695962802013,"city":"Jackson Heights","crossStreet":"Count Sheep Avenue"},"stats":{"checkinsCount":41,"usersCount":20,"tipCount":0},"verified":false,"name":"Insomniapocalypse","categories":[{"id":"4bf58dd8d48988d11a941735","icon":{"sizes":[32,44,64,88,256],"name":".png","prefix":"https://foursquare.com/img/categories/nightlife/default_"},"primary":true,"name":"Other Nightlife","shortName":"Other - Nightlife","pluralName":"Other Nightlife"}],"hereNow":{"count":0},"contact":{}},{"id":"4e5db8bafa768fe5f2be80c7","location":{"distance":66,"lng":-73.83815879751982,"lat":40.83690327480384},"stats":{"checkinsCount":101,"usersCount":58,"tipCount":0},"verified":false,"name":"Hutchinson Pkwy","categories":[{"id":"4bf58dd8d48988d1f9931735","icon":{"sizes":[32,44,64,88,256],"name":".png","prefix":"https://foursquare.com/img/categories/travel/highway_"},"primary":true,"name":"Highway or Road","shortName":"Highway / Road","pluralName":"Highways or Roads"}],"hereNow":{"count":1},"contact":{}},{"id":"4ddd1c0e52b177ff2e7ba95b","location":{"distance":119,"state":"New York","lng":-73.837594,"lat":40.836673},"stats":{"checkinsCount":148,"usersCount":9,"tipCount":2},"verified":false,"name":"The Deuce Shack","categories":[{"id":"4bf58dd8d48988d112951735","icon":{"sizes":[32,44,64,88,256],"name":".png","prefix":"https://foursquare.com/img/categories/shops/hardware_"},"primary":true,"name":"Hardware Store","shortName":"Hardware","pluralName":"Hardware Stores"}],"hereNow":{"count":0},"contact":{}},{"id":"4dbe34de1e72b351cadc59f9","location":{"distance":253,"isFuzzed":true,"state":"New York","lng":-73.836025107013,"lat":40.83776799781627,"city":"Schuylerville"},"stats":{"checkinsCount":96,"usersCount":9,"tipCount":0},"verified":false,"name":"In my bed","categories":[{"id":"4bf58dd8d48988d103941735","icon":{"sizes":[32,44,64,88,256],"name":".png","prefix":"https://foursquare.com/img/categories/building/home_"},"primary":true,"name":"Home","shortName":"Home","pluralName":"Homes"}],"hereNow":{"count":0},"contact":{}},{"id":"4dd186387d8b4c6585d7e503","location":{"distance":253,"isFuzzed":true,"state":"New York","lng":-73.836025107013,"lat":40.83776799781627,"city":"Schuylerville"},"stats":{"checkinsCount":9,"usersCount":1,"tipCount":0},"verified":false,"name":"Home sweet home","categories":[{"id":"4bf58dd8d48988d103941735","icon":{"sizes":[32,44,64,88,256],"name":".png","prefix":"https://foursquare.com/img/categories/building/home_"},"primary":true,"name":"Home","shortName":"Home","pluralName":"Homes"}],"hereNow":{"count":0},"contact":{}},{"id":"4ec9137bf5b9e8819462979c","location":{"distance":22,"postalCode":"10461","address":"3000 E Tremont Ave, Bronx, NY 10461","state":"NY","lng":-73.83864698726168,"lat":40.837169,"city":"Bronx"},"stats":{"checkinsCount":11,"usersCount":5,"tipCount":0},"verified":false,"name":"Bronx Highlanders Academy","categories":[{"id":"4bf58dd8d48988d1e8941735","icon":{"sizes":[32,44,64,88,256],"name":".png","prefix":"https://foursquare.com/img/categories/parks_outdoors/baseballfield_"},"primary":true,"name":"Baseball Field","shortName":"Baseball Field","pluralName":"Baseball Fields"}],"hereNow":{"count":0},"contact":{}},{"id":"4dc0cef4ae60533f34e4501a","location":{"distance":99,"state":"New York","lng":-73.837822,"lat":40.836739550000004},"stats":{"checkinsCount":36,"usersCount":5,"tipCount":0},"verified":false,"name":"Under the covers","categories":[],"hereNow":{"count":0},"contact":{}},{"id":"4b9fd2f9f964a520ff4137e3","location":{"distance":157,"postalCode":"10461","address":"1350 Commerce Ave","state":"NY","lng":-73.84074211120605,"lat":40.83686598279944,"city":"Bronx","crossStreet":"Westchester Ave and Zerega Ave"},"stats":{"checkinsCount":141,"usersCount":117,"tipCount":1},"verified":false,"name":"New York State DMV","categories":[{"id":"4bf58dd8d48988d130941735","icon":{"sizes":[32,44,64,88,256],"name":".png","prefix":"https://foursquare.com/img/categories/building/default_"},"primary":true,"name":"Building","shortName":"Other - Buildings","pluralName":"Buildings"}],"hereNow":{"count":1},"contact":{"phone":"7189666155","formattedPhone":"(718) 966-6155"}},{"id":"4d7141e17726a1cd83a64fd2","location":{"distance":127,"address":"1320 Hutchinson River Pkwy","state":"New York","lng":-73.83881025,"lat":40.835961,"city":"Bronx"},"stats":{"checkinsCount":16,"usersCount":16,"tipCount":0},"verified":false,"name":"Citgo","categories":[],"hereNow":{"count":0},"contact":{}},{"id":"4de06e0f7d8b84d5dc6d1cef","location":{"distance":253,"isFuzzed":true,"state":"New York","lng":-73.836025107013,"lat":40.83776799781627,"city":"Schuylerville"},"stats":{"checkinsCount":5,"usersCount":1,"tipCount":0},"verified":false,"name":"Watching tv with hubby","categories":[{"id":"4bf58dd8d48988d103941735","icon":{"sizes":[32,44,64,88,256],"name":".png","prefix":"https://foursquare.com/img/categories/building/home_"},"primary":true,"name":"Home","shortName":"Home","pluralName":"Homes"}],"hereNow":{"count":0},"contact":{}},{"id":"4ede136f61af8a14ba9e629b","location":{"distance":672,"postalCode":"10462","address":"1235 Zerega Ave, Bronx, NY 10462","state":"NY","lng":-73.84584333828965,"lat":40.83411217078353,"city":"Bronx"},"stats":{"checkinsCount":2,"usersCount":2,"tipCount":0},"verified":false,"name":"Cityworld Auto","categories":[{"id":"4bf58dd8d48988d124951735","icon":{"sizes":[32,44,64,88,256],"name":".png","prefix":"https://foursquare.com/img/categories/shops/automotive_"},"primary":true,"name":"Automotive Shop","shortName":"Automotive","pluralName":"Automotive Shops"}],"hereNow":{"count":0},"contact":{"phone":"7188298600","formattedPhone":"(718) 829-8600"}},{"id":"4e1f77291495f18f033a52da","location":{"distance":93,"state":"New York","lng":-73.837822,"lat":40.8369062},"stats":{"checkinsCount":30,"usersCount":1,"tipCount":0},"verified":false,"name":"On the throne","categories":[],"hereNow":{"count":0},"contact":{}},{"id":"4ea36eb38231f6dc6a7685f9","location":{"distance":168,"address":"1447 Ferris Place","state":"NY","lng":-73.8390815,"lat":40.8355951,"city":"Bronx","crossStreet":"Westchester Square"},"stats":{"checkinsCount":1,"usersCount":1,"tipCount":0},"verified":false,"name":"Chippewa Democratic Club","categories":[{"id":"4bf58dd8d48988d171941735","icon":{"sizes":[32,44,64,88,256],"name":".png","prefix":"https://foursquare.com/img/categories/building/default_"},"primary":true,"name":"Event Space","shortName":"Event Space","pluralName":"Event Spaces"}],"hereNow":{"count":0},"contact":{}},{"id":"4c70cdd134443704a667255f","location":{"distance":30,"state":"New York","lng":-73.839196,"lat":40.836948,"city":"Bronx","crossStreet":"Westchester sqaure"},"stats":{"checkinsCount":2,"usersCount":2,"tipCount":0},"verified":false,"name":"Whitecastle","categories":[],"hereNow":{"count":0},"contact":{}},{"id":"4e1c70616284ae9cf27b2f31","location":{"distance":36,"lng":-73.8384811,"lat":40.8371977},"stats":{"checkinsCount":6,"usersCount":1,"tipCount":0},"verified":false,"name":"Our Children's First","categories":[{"id":"4d4b7105d754a06375d81259","icon":{"sizes":[32,44,64,88,256],"name":".png","prefix":"https://foursquare.com/img/categories/building/default_"},"primary":true,"name":"Professional & Other Places","shortName":"Professional & Other Places","pluralName":"Professional & Other Places"}],"hereNow":{"count":0},"contact":{}},{"id":"4c8bacc82e3337043624cf41","location":{"distance":127,"address":"550 E 187 St.","state":"New York","lng":-73.837563,"lat":40.836571,"city":"Bronx"},"stats":{"checkinsCount":5,"usersCount":3,"tipCount":1},"verified":false,"name":"Jacqui Unisex Salon","categories":[],"hereNow":{"count":0},"contact":{}},{"id":"4df376f145dd4e26934096a2","location":{"distance":120,"state":"NY","lng":-73.837608,"lat":40.836643},"stats":{"checkinsCount":3,"usersCount":1,"tipCount":0},"verified":false,"name":"The Nook","categories":[],"hereNow":{"count":0},"contact":{}},{"id":"4b85e78cf964a520bd7831e3","location":{"distance":119,"address":"Bay Plaza","state":"NY","lng":-73.837543,"lat":40.83679,"city":"Bronx"},"stats":{"checkinsCount":9,"usersCount":7,"tipCount":0},"verified":false,"name":"Checker's","categories":[],"hereNow":{"count":0},"contact":{}},{"id":"4db8ff404b22a2fe44e94894","location":{"distance":180,"postalCode":"10461","state":"New York","lng":-73.837031,"lat":40.837899500000006,"city":"bx"},"stats":{"checkinsCount":1,"usersCount":1,"tipCount":0},"verified":false,"name":"Uh Ohhhh","categories":[],"hereNow":{"count":0},"contact":{}},{"id":"4cf669efe308236a4f04e6ac","location":{"distance":201,"postalCode":"10461","lng":-73.84077146666667,"lat":40.83823266666667,"city":"Bronx"},"stats":{"checkinsCount":15,"usersCount":3,"tipCount":0},"verified":false,"name":"Schildwachter","categories":[],"hereNow":{"count":0},"contact":{}},{"id":"4cfbcc0f2d80a14340744dd8","location":{"distance":128,"postalCode":"10462","address":"2271 Westchester Avenue","state":"New York","lng":-73.837543,"lat":40.836567,"city":"Bronx"},"stats":{"checkinsCount":4,"usersCount":3,"tipCount":0},"verified":false,"name":"Gentle Touch- Hand car wash and detailing","categories":[{"id":"4bf58dd8d48988d130941735","icon":{"sizes":[32,44,64,88,256],"name":".png","prefix":"https://foursquare.com/img/categories/building/default_"},"primary":true,"name":"Building","shortName":"Other - Buildings","pluralName":"Buildings"}],"hereNow":{"count":0},"contact":{}},{"id":"4cfd1f9d7f2db1f77f6536d4","location":{"distance":253,"isFuzzed":true,"state":"New York","lng":-73.836025107013,"lat":40.83776799781627,"city":"New York"},"stats":{"checkinsCount":1,"usersCount":1,"tipCount":0},"verified":false,"name":"130 West 86th St","categories":[{"id":"4bf58dd8d48988d103941735","icon":{"sizes":[32,44,64,88,256],"name":".png","prefix":"https://foursquare.com/img/categories/building/home_"},"primary":true,"name":"Home","shortName":"Home","pluralName":"Homes"}],"hereNow":{"count":0},"contact":{}},{"id":"4c5c348f85a1e21e16eb5511","location":{"distance":166,"postalCode":"10461","address":"Roberts Ave.","state":"New York","lng":-73.838641,"lat":40.838584,"city":"Bronx","crossStreet":"Blondell"},"stats":{"checkinsCount":2,"usersCount":1,"tipCount":0},"verified":false,"name":"CTL","categories":[],"hereNow":{"count":0},"contact":{}},{"id":"4b755ceef964a5204f082ee3","location":{"distance":115,"postalCode":"10461","address":"3175 East Tremont Avenue","state":"NY","lng":-73.838394,"lat":40.836134,"city":"Bronx"},"stats":{"checkinsCount":31,"usersCount":2,"tipCount":0},"verified":false,"name":"East Tremont Vascular Healthcare","categories":[],"hereNow":{"count":0},"contact":{}},{"id":"4bd7760f35aad13a09fd8ef3","location":{"distance":253,"isFuzzed":true,"lng":-73.836025107013,"lat":40.83776799781627},"stats":{"checkinsCount":1,"usersCount":1,"tipCount":0},"verified":false,"name":"Jay's House","categories":[{"id":"4bf58dd8d48988d103941735","icon":{"sizes":[32,44,64,88,256],"name":".png","prefix":"https://foursquare.com/img/categories/building/home_"},"primary":true,"name":"Home","shortName":"Home","pluralName":"Homes"}],"hereNow":{"count":0},"contact":{}}]},"meta":{"code":200}}